[{"address":"Clarendon Row","banking":0,"bike_stands":31,"name":"CLARENDON ROW","number":1,"position_lat":53.3409,"position_lng":-6.2625},{"address":"Blessington Street","banking":0,"bike_stands":20,"name":"BLESSINGTON STREET","number":2,"position_lat":53.3568,"position_lng":-6.26814},{"address":"Bolton Street","banking":0,"bike_stands":20,"name":"BOLTON STREET","number":3,"position_lat":53.3512,"position_lng":-6.26986},{"address":"Greek Street","banking":0,"bike_stands":20,"name":"GREEK STREET","number":4,"position_lat":53.3469,"position_lng":-6.27298},{"address":"Charlemont Street","banking":0,"bike_stands":40,"name":"CHARLEMONT PLACE","number":5,"position_lat":53.3307,"position_lng":-6.26018},{"address":"Christchurch Place","banking":0,"bike_stands":20,"name":"CHRISTCHURCH PLACE","number":6,"position_lat":53.3434,"position_lng":-6.27012},{"address":"High Street","banking":0,"bike_stands":29,"name":"HIGH STREET","number":7,"position_lat":53.3436,"position_lng":-6.27507},{"address":"Custom House Quay","banking":0,"bike_stands":30,"name":"CUSTOM HOUSE QUAY","number":8,"position_lat":53.3479,"position_lng":-6.24805},{"address":"Exchequer Street","banking":0,"bike_stands":24,"name":"EXCHEQUER STREET","number":9,"position_lat":53.343,"position_lng":-6.26358},{"address":"Dame Street","banking":1,"bike_stands":16,"name":"DAME STREET","number":10,"position_lat":53.344,"position_lng":-6.2668},{"address":"Earlsfort Terrace","banking":0,"bike_stands":30,"name":"EARLSFORT TERRACE","number":11,"position_lat":53.3343,"position_lng":-6.2585},{"address":"Eccles Street","banking":0,"bike_stands":20,"name":"ECCLES STREET","number":12,"position_lat":53.3592,"position_lng":-6.26978},{"address":"Fitzwilliam Square West","banking":0,"bike_stands":30,"name":"FITZWILLIAM SQUARE WEST","number":13,"position_lat":53.3361,"position_lng":-6.25282},{"address":"Fownes Street Upper","banking":0,"bike_stands":30,"name":"FOWNES STREET UPPER","number":14,"position_lat":53.3446,"position_lng":-6.26337},{"address":"Hardwicke Street","banking":0,"bike_stands":16,"name":"HARDWICKE STREET","number":15,"position_lat":53.3555,"position_lng":-6.26442},{"address":"Georges Quay","banking":0,"bike_stands":20,"name":"GEORGES QUAY","number":16,"position_lat":53.3475,"position_lng":-6.25219},{"address":"Golden Lane","banking":0,"bike_stands":20,"name":"GOLDEN LANE","number":17,"position_lat":53.3408,"position_lng":-6.26773},{"address":"Grantham Street","banking":0,"bike_stands":30,"name":"GRANTHAM STREET","number":18,"position_lat":53.3341,"position_lng":-6.26544},{"address":"Herbert Place","banking":0,"bike_stands":30,"name":"HERBERT PLACE","number":19,"position_lat":53.3344,"position_lng":-6.24557},{"address":"James Street East","banking":0,"bike_stands":30,"name":"JAMES STREET EAST","number":20,"position_lat":53.3366,"position_lng":-6.24811},{"address":"Leinster Street South","banking":0,"bike_stands":30,"name":"LEINSTER STREET SOUTH","number":21,"position_lat":53.3422,"position_lng":-6.25449},{"address":"Townsend Street","banking":0,"bike_stands":20,"name":"TOWNSEND STREET","number":22,"position_lat":53.3459,"position_lng":-6.25461},{"address":"Custom House","banking":0,"bike_stands":30,"name":"CUSTOM HOUSE","number":23,"position_lat":53.3483,"position_lng":-6.25466},{"address":"Cathal Brugha Street","banking":0,"bike_stands":20,"name":"CATHAL BRUGHA STREET","number":24,"position_lat":53.3521,"position_lng":-6.26053},{"address":"Merrion Square East","banking":0,"bike_stands":30,"name":"MERRION SQUARE EAST","number":25,"position_lat":53.3394,"position_lng":-6.24655},{"address":"Merrion Square West","banking":1,"bike_stands":20,"name":"MERRION SQUARE WEST","number":26,"position_lat":53.3398,"position_lng":-6.25199},{"address":"Molesworth Street","banking":0,"bike_stands":20,"name":"MOLESWORTH STREET","number":27,"position_lat":53.3413,"position_lng":-6.25812},{"address":"Mountjoy Square West","banking":0,"bike_stands":30,"name":"MOUNTJOY SQUARE WEST","number":28,"position_lat":53.3563,"position_lng":-6.25859},{"address":"Ormond Quay Upper","banking":0,"bike_stands":29,"name":"ORMOND QUAY UPPER","number":29,"position_lat":53.3461,"position_lng":-6.268},{"address":"Parnell Square North","banking":0,"bike_stands":20,"name":"PARNELL SQUARE NORTH","number":30,"position_lat":53.3537,"position_lng":-6.2653},{"address":"Parnell Street","banking":0,"bike_stands":20,"name":"PARNELL STREET","number":31,"position_lat":53.3509,"position_lng":-6.26512},{"address":"Pearse Street","banking":0,"bike_stands":30,"name":"PEARSE STREET","number":32,"position_lat":53.3443,"position_lng":-6.25043},{"address":"Princes Street / O'Connell Street","banking":1,"bike_stands":23,"name":"PRINCES STREET / O'CONNELL STREET","number":33,"position_lat":53.349,"position_lng":-6.26031},{"address":"Portobello Harbour","banking":0,"bike_stands":30,"name":"PORTOBELLO HARBOUR","number":34,"position_lat":53.3304,"position_lng":-6.26516},{"address":"Smithfield","banking":0,"bike_stands":30,"name":"SMITHFIELD","number":35,"position_lat":53.3477,"position_lng":-6.27821},{"address":"St. Stephen's Green East","banking":0,"bike_stands":40,"name":"ST. STEPHEN'S GREEN EAST","number":36,"position_lat":53.3378,"position_lng":-6.25603},{"address":"St. Stephen's Green South","banking":1,"bike_stands":30,"name":"ST. STEPHEN'S GREEN SOUTH","number":37,"position_lat":53.3375,"position_lng":-6.26199},{"address":"Talbot Street","banking":0,"bike_stands":40,"name":"TALBOT STREET","number":38,"position_lat":53.351,"position_lng":-6.25294},{"address":"Wilton Terrace","banking":0,"bike_stands":20,"name":"WILTON TERRACE","number":39,"position_lat":53.3324,"position_lng":-6.25272},{"address":"Jervis Street","banking":0,"bike_stands":21,"name":"JERVIS STREET","number":40,"position_lat":53.3483,"position_lng":-6.26665},{"address":"Harcourt Terrace","banking":0,"bike_stands":20,"name":"HARCOURT TERRACE","number":41,"position_lat":53.3328,"position_lng":-6.25794},{"address":"Smithfield North","banking":0,"bike_stands":30,"name":"SMITHFIELD NORTH","number":42,"position_lat":53.3496,"position_lng":-6.2782},{"address":"Portobello Road","banking":0,"bike_stands":30,"name":"PORTOBELLO ROAD","number":43,"position_lat":53.3301,"position_lng":-6.26804},{"address":"Upper Sherrard Street","banking":0,"bike_stands":30,"name":"UPPER SHERRARD STREET","number":44,"position_lat":53.3584,"position_lng":-6.26064},{"address":"Deverell Place","banking":0,"bike_stands":30,"name":"DEVERELL PLACE","number":45,"position_lat":53.3515,"position_lng":-6.25527},{"address":"Herbert Street","banking":0,"bike_stands":40,"name":"HERBERT STREET","number":47,"position_lat":53.3357,"position_lng":-6.24551},{"address":"Excise Walk","banking":0,"bike_stands":40,"name":"EXCISE WALK","number":48,"position_lat":53.3478,"position_lng":-6.24424},{"address":"Guild Street","banking":0,"bike_stands":40,"name":"GUILD STREET","number":49,"position_lat":53.3479,"position_lng":-6.24093},{"address":"George's Lane","banking":0,"bike_stands":40,"name":"GEORGES LANE","number":50,"position_lat":53.3502,"position_lng":-6.2797},{"address":"York Street West","banking":0,"bike_stands":40,"name":"YORK STREET WEST","number":51,"position_lat":53.3393,"position_lng":-6.2647},{"address":"York Street East","banking":0,"bike_stands":32,"name":"YORK STREET EAST","number":52,"position_lat":53.3388,"position_lng":-6.262},{"address":"Newman House","banking":0,"bike_stands":40,"name":"NEWMAN HOUSE","number":53,"position_lat":53.3371,"position_lng":-6.26059},{"address":"Clonmel Street","banking":0,"bike_stands":33,"name":"CLONMEL STREET","number":54,"position_lat":53.336,"position_lng":-6.26298},{"address":"Hatch Street","banking":0,"bike_stands":36,"name":"HATCH STREET","number":55,"position_lat":53.334,"position_lng":-6.26071},{"address":"Mount Street Lower","banking":0,"bike_stands":40,"name":"MOUNT STREET LOWER","number":56,"position_lat":53.338,"position_lng":-6.24153},{"address":"Grattan Street","banking":0,"bike_stands":23,"name":"GRATTAN STREET","number":57,"position_lat":53.3396,"position_lng":-6.24378},{"address":"Sir Patrick's Dun","banking":0,"bike_stands":40,"name":"SIR PATRICK DUN'S","number":58,"position_lat":53.3392,"position_lng":-6.24064},{"address":"Denmark Street Great","banking":0,"bike_stands":20,"name":"DENMARK STREET GREAT","number":59,"position_lat":53.3556,"position_lng":-6.2614},{"address":"North Circular Road","banking":0,"bike_stands":30,"name":"NORTH CIRCULAR ROAD","number":60,"position_lat":53.3596,"position_lng":-6.26035},{"address":"Hardwicke Place","banking":0,"bike_stands":25,"name":"HARDWICKE PLACE","number":61,"position_lat":53.357,"position_lng":-6.26323},{"address":"Lime Street","banking":0,"bike_stands":40,"name":"LIME STREET","number":62,"position_lat":53.346,"position_lng":-6.24358},{"address":"Fenian Street","banking":0,"bike_stands":35,"name":"FENIAN STREET","number":63,"position_lat":53.3414,"position_lng":-6.24672},{"address":"Sandwith Street","banking":0,"bike_stands":40,"name":"SANDWITH STREET","number":64,"position_lat":53.3452,"position_lng":-6.24716},{"address":"Convention Centre","banking":1,"bike_stands":40,"name":"CONVENTION CENTRE","number":65,"position_lat":53.3474,"position_lng":-6.23852},{"address":"New Central Bank","banking":0,"bike_stands":40,"name":"NEW CENTRAL BANK","number":66,"position_lat":53.3471,"position_lng":-6.23475},{"address":"The Point","banking":0,"bike_stands":40,"name":"THE POINT","number":67,"position_lat":53.3469,"position_lng":-6.23085},{"address":"Hanover Quay","banking":0,"bike_stands":40,"name":"HANOVER QUAY","number":68,"position_lat":53.3441,"position_lng":-6.23715},{"address":"Grand Canal Dock","banking":0,"bike_stands":40,"name":"GRAND CANAL DOCK","number":69,"position_lat":53.3426,"position_lng":-6.2387},{"address":"Kevin Street","banking":0,"bike_stands":40,"name":"KEVIN STREET","number":71,"position_lat":53.3378,"position_lng":-6.2677},{"address":"John Street West","banking":0,"bike_stands":31,"name":"JOHN STREET WEST","number":72,"position_lat":53.3431,"position_lng":-6.27717},{"address":"Oliver Bond Street","banking":0,"bike_stands":30,"name":"OLIVER BOND STREET","number":74,"position_lat":53.3439,"position_lng":-6.28053},{"address":"James Street","banking":0,"bike_stands":40,"name":"JAMES STREET","number":75,"position_lat":53.3435,"position_lng":-6.28741},{"address":"Market Street South","banking":0,"bike_stands":38,"name":"MARKET STREET SOUTH","number":76,"position_lat":53.3423,"position_lng":-6.28766},{"address":"Wolfe Tone Street","banking":0,"bike_stands":29,"name":"WOLFE TONE STREET","number":77,"position_lat":53.3489,"position_lng":-6.26746},{"address":"Mater Hospital","banking":0,"bike_stands":40,"name":"MATER HOSPITAL","number":78,"position_lat":53.36,"position_lng":-6.26483},{"address":"Eccles Street East","banking":0,"bike_stands":27,"name":"ECCLES STREET EAST","number":79,"position_lat":53.3581,"position_lng":-6.2656},{"address":"St James Hospital (Luas)","banking":0,"bike_stands":40,"name":"ST JAMES HOSPITAL (LUAS)","number":80,"position_lat":53.3414,"position_lng":-6.29295},{"address":"Mount Brown","banking":0,"bike_stands":22,"name":"MOUNT BROWN","number":82,"position_lat":53.3416,"position_lng":-6.29719},{"address":"Emmet Road","banking":0,"bike_stands":40,"name":"EMMET ROAD","number":83,"position_lat":53.3407,"position_lng":-6.30819},{"address":"Brookfield Road","banking":0,"bike_stands":30,"name":"BROOKFIELD ROAD","number":84,"position_lat":53.339,"position_lng":-6.30022},{"address":"Rothe Abbey","banking":0,"bike_stands":35,"name":"ROTHE ABBEY","number":85,"position_lat":53.3388,"position_lng":-6.30395},{"address":"Parkgate Street","banking":0,"bike_stands":38,"name":"PARKGATE STREET","number":86,"position_lat":53.348,"position_lng":-6.2918},{"address":"Collins Barracks Museum","banking":0,"bike_stands":38,"name":"COLLINS BARRACKS MUSEUM","number":87,"position_lat":53.3475,"position_lng":-6.28525},{"address":"Blackhall Place","banking":0,"bike_stands":30,"name":"BLACKHALL PLACE","number":88,"position_lat":53.3488,"position_lng":-6.28164},{"address":"Fitzwilliam Square East","banking":0,"bike_stands":40,"name":"FITZWILLIAM SQUARE EAST","number":89,"position_lat":53.3352,"position_lng":-6.2509},{"address":"Benson Street","banking":0,"bike_stands":40,"name":"BENSON STREET","number":90,"position_lat":53.3442,"position_lng":-6.23345},{"address":"South Dock Road","banking":0,"bike_stands":30,"name":"SOUTH DOCK ROAD","number":91,"position_lat":53.3418,"position_lng":-6.23129},{"address":"Heuston Bridge (North)","banking":0,"bike_stands":40,"name":"HEUSTON BRIDGE (NORTH)","number":92,"position_lat":53.3478,"position_lng":-6.29243},{"address":"Heuston Station (Central)","banking":0,"bike_stands":40,"name":"HEUSTON STATION (CENTRAL)","number":93,"position_lat":53.3466,"position_lng":-6.29692},{"address":"Heuston Station (Car Park)","banking":0,"bike_stands":40,"name":"HEUSTON STATION (CAR PARK)","number":94,"position_lat":53.347,"position_lng":-6.2978},{"address":"Royal Hospital","banking":0,"bike_stands":40,"name":"ROYAL HOSPITAL","number":95,"position_lat":53.3439,"position_lng":-6.29706},{"address":"Kilmainham Lane","banking":0,"bike_stands":30,"name":"KILMAINHAM LANE","number":96,"position_lat":53.3418,"position_lng":-6.30509},{"address":"Kilmainham Gaol","banking":0,"bike_stands":40,"name":"KILMAINHAM GAOL","number":97,"position_lat":53.3421,"position_lng":-6.31002},{"address":"Frederick Street South","banking":0,"bike_stands":40,"name":"FREDERICK STREET SOUTH","number":98,"position_lat":53.3415,"position_lng":-6.25685},{"address":"City Quay","banking":0,"bike_stands":30,"name":"CITY QUAY","number":99,"position_lat":53.3466,"position_lng":-6.24615},{"address":"Heuston Bridge (South)","banking":0,"bike_stands":25,"name":"HEUSTON BRIDGE (SOUTH)","number":100,"position_lat":53.3471,"position_lng":-6.29204},{"address":"King Street North","banking":0,"bike_stands":30,"name":"KING STREET NORTH","number":101,"position_lat":53.3503,"position_lng":-6.27351},{"address":"Western Way","banking":0,"bike_stands":40,"name":"WESTERN WAY","number":102,"position_lat":53.3549,"position_lng":-6.26942},{"address":"Grangegorman Lower (South)","banking":0,"bike_stands":40,"name":"GRANGEGORMAN LOWER (SOUTH)","number":103,"position_lat":53.3547,"position_lng":-6.27868},{"address":"Grangegorman Lower (Central)","banking":0,"bike_stands":40,"name":"GRANGEGORMAN LOWER (CENTRAL)","number":104,"position_lat":53.3552,"position_lng":-6.27842},{"address":"Grangegorman Lower (North)","banking":0,"bike_stands":36,"name":"GRANGEGORMAN LOWER (NORTH)","number":105,"position_lat":53.356,"position_lng":-6.27838},{"address":"Rathdown Road","banking":0,"bike_stands":40,"name":"RATHDOWN ROAD","number":106,"position_lat":53.3589,"position_lng":-6.28034},{"address":"Charleville Road","banking":0,"bike_stands":40,"name":"CHARLEVILLE ROAD","number":107,"position_lat":53.3592,"position_lng":-6.28187},{"address":"Avondale Road","banking":0,"bike_stands":35,"name":"AVONDALE ROAD","number":108,"position_lat":53.3594,"position_lng":-6.27614},{"address":"Buckingham Street Lower","banking":0,"bike_stands":29,"name":"BUCKINGHAM STREET LOWER","number":109,"position_lat":53.3533,"position_lng":-6.24932},{"address":"Phibsborough Road","banking":0,"bike_stands":40,"name":"PHIBSBOROUGH ROAD","number":110,"position_lat":53.3563,"position_lng":-6.27372},{"address":"Mountjoy Square East","banking":0,"bike_stands":40,"name":"MOUNTJOY SQUARE EAST","number":111,"position_lat":53.3567,"position_lng":-6.25636},{"address":"North Circular Road (O'Connell's)","banking":0,"bike_stands":30,"name":"NORTH CIRCULAR ROAD (O'CONNELL'S)","number":112,"position_lat":53.3578,"position_lng":-6.25156},{"address":"Merrion Square South","banking":0,"bike_stands":40,"name":"MERRION SQUARE SOUTH","number":113,"position_lat":53.3386,"position_lng":-6.24861},{"address":"Wilton Terrace (Park)","banking":0,"bike_stands":40,"name":"WILTON TERRACE (PARK)","number":114,"position_lat":53.3337,"position_lng":-6.24834},{"address":"Killarney Street","banking":0,"bike_stands":30,"name":"KILLARNEY STREET","number":115,"position_lat":53.3548,"position_lng":-6.24758},{"address":"Broadstone","banking":0,"bike_stands":30,"name":"BROADSTONE","number":116,"position_lat":53.3547,"position_lng":-6.27231},{"address":"Hanover Quay East","banking":0,"bike_stands":40,"name":"HANOVER QUAY EAST","number":117,"position_lat":53.3437,"position_lng":-6.23175},{"address":"JCDecaux Ireland, 52 Oriel Street Lower, Dublin 1","banking":0,"bike_stands":1,"name":"ORIEL STREET TEST TERMINAL","number":507,"position_lat":53.3546,"position_lng":-6.24262}]